     3.03           OBSERVATION DATA    M                   RINEX VERSION / TYPE
BNC 2.12            weber               20150715 124027 UTC PGM / RUN BY / DATE
PORTIONS OF THIS HEADER GENERATED BY THE IGS CB FROM        COMMENT
SITELOG cut0_20150507.log                                   COMMENT
Default set of observation types used                       COMMENT
RTCM_3 mgex.igs-ip.net/CUT07                                COMMENT
RTCM_3 mgex.igs-ip.net/CUT07                                COMMENT
CUT07                                                       MARKER NAME
59945M001                                                   MARKER NUMBER
                                                            MARKER TYPE
gnss@curtin.edu.au  CUT                                     OBSERVER / AGENCY
5023K67889          TRIMBLE NETR9       5.01                REC # / TYPE / VERS
4928353386          TRM59800.00     SCIS                    ANT # / TYPE
 -2364337.2699  4870285.5624 -3360809.8398                  APPROX POSITION XYZ
        0.0000        0.0000        0.0000                  ANTENNA: DELTA H/E/N
C    9 C2I L2I S2I C6I L6I S6I C7I L7I S7I                  SYS / # / OBS TYPES
E   12 C1X L1X SX1 C5X L5X SX5 C7X L7X SX7 C8X L8X SX8      SYS / # / OBS TYPES
G   15 C1C L1C S1C C1W L1W S1W C2X L2X S2X C2W L2W S2W C5X  SYS / # / OBS TYPES
       L5X S5X                                              SYS / # / OBS TYPES
J   15 C1C L1C S1C C1W L1W S1W C2X L2X S2X C2W L2W S2W C5X  SYS / # / OBS TYPES
       L5X S5X                                              SYS / # / OBS TYPES
R    6 C1C L1C S1C C2P L2P S2P                              SYS / # / OBS TYPES
S    9 C1C L1C S1C C5I L5I S5I C5Q L5Q S5Q                  SYS / # / OBS TYPES
    30.000                                                  INTERVAL
  2015     7    13    12     0    0.0000000     GPS         TIME OF FIRST OBS
C L2I  0.00000                                              SYS / PHASE SHIFT
C L6I  0.00000                                              SYS / PHASE SHIFT
C L7I  0.00000                                              SYS / PHASE SHIFT
E L1X  0.00000                                              SYS / PHASE SHIFT
E L5X  0.00000                                              SYS / PHASE SHIFT
E L7X  0.00000                                              SYS / PHASE SHIFT
E L8X  0.00000                                              SYS / PHASE SHIFT
G L1C  0.00000                                              SYS / PHASE SHIFT
G L1W  0.00000                                              SYS / PHASE SHIFT
G L2W  0.00000                                              SYS / PHASE SHIFT
G L2X  0.00000                                              SYS / PHASE SHIFT
G L5X  0.00000                                              SYS / PHASE SHIFT
J L1C  0.00000                                              SYS / PHASE SHIFT
J L1W  0.00000                                              SYS / PHASE SHIFT
J L2W  0.00000                                              SYS / PHASE SHIFT
J L2X  0.00000                                              SYS / PHASE SHIFT
J L5X  0.00000                                              SYS / PHASE SHIFT
R L1C  0.00000                                              SYS / PHASE SHIFT
R L2P  0.00000                                              SYS / PHASE SHIFT
S L1C  0.00000                                              SYS / PHASE SHIFT
S L5I  0.00000                                              SYS / PHASE SHIFT
S L5Q  0.00000                                              SYS / PHASE SHIFT
                                                            GLONASS COD/PHS/BIS
  0                                                         GLONASS SLOT / FRQ #
                                                            END OF HEADER
> 2015 07 13 12 00  0.0000000  0 37
G05  23329946.203   122599046.445          45.375                                                    23329949.938    95532735.493          43.375    23329949.867    95532685.491          30.625                                                  
G07  25733324.140   135229365.445          39.812                                                    25733326.996   105373499.094          34.688    25733327.511   105374120.092          20.625                                                  
G12  25783185.711   135492297.156          30.688                                                    25783191.145   105578083.884          33.000    25783192.539   105578001.850          13.875                                                  
G13  20604193.890   108275427.365          51.500                                                                                                    20604195.562    84370562.093          43.875                                                  
G15  22271577.078   117037870.558          48.812                                                    22271579.875    91198370.537          46.312    22271579.629    91198251.549          38.375                                                  
G17  21924690.797   115214393.010          50.500                                                    21924692.773    89777824.182          46.312    21924692.996    89777985.193          39.000                                                  
G20  23399773.117   122966733.332          44.312                                                                                                    23399776.196    95818136.439          25.312                                                  
G24  25002567.109   131390167.092          35.375                                                    25002571.078   102381264.957          39.375    25002571.887   102380825.929          19.875    25002575.597    98115672.236          43.812  
G28  20820788.656   109414349.978          52.125                                                                                                    20820789.449    85257825.070          40.688                                                  
G30  23100774.265   121395899.227          46.312                                                    23100780.226    94594061.260          45.812    23100779.863    94593616.257          33.000    23100783.281    90652783.883          49.812  
R03  23919550.219   128042720.590          38.312    23919556.707    99589581.826          37.875  
R04  20580579.734   110207805.410          52.812    20580581.766    85718031.850          47.375  
R05  21015506.554   112339796.490          46.000    21015511.168    87375748.107          46.312  
R06  24807302.101   132376975.730          40.375    24807304.133   102958936.756          27.375  
R13  24241778.633   129449216.257          32.812    24241785.121   100683118.846          36.188  
R14  20934965.969   111595295.361          45.812    20934972.574    86796823.812          40.875  
R15  21053803.305   112504384.876          49.625    21053808.738    87503934.980          45.125  
R16  24653070.477   131692581.088          37.875    24653078.141   102427682.435          34.312  
R17  22580763.289   120410530.377          43.812    22580769.426    93652661.563          33.188  
R23  23515916.937   125794225.178          42.688    23515924.484    97840301.004          34.688  
R24  21921329.226   117223635.814          43.375    21921333.020    91173311.523          39.625  
E11  27036926.258   142079326.559                    27036928.102   106098476.224                    27036925.008   108866052.291                    27036926.543   107482368.863                  
S27  40097094.562   210711020.035          37.875    40097086.731   157349404.819          40.875                                                  
S28  38017138.250   199780750.835          45.000    38017126.527   149187306.003          44.875                                                  
S29  37588013.797   197526162.366          45.812                                                                                                  
S37  37826726.953   198780128.659          43.375                                                                                                  
J01  44118441.047   231843562.481          34.188                                                    44118444.781   180657339.800          34.688                                                    44118452.055   173129644.408          40.188  
C01  37535605.680   195457981.888          43.312    37535590.418   158825348.914          45.812    37535594.442   151140253.755          46.875  
C02  38189098.524   198860248.885          37.875    38189088.481   161590523.429          42.625    38189091.738   153771640.486          43.000  
C03  36986448.500   192598621.421          43.625    36986436.523   156501550.163          48.125    36986441.597   148928895.237          47.188  
C04  38772496.844   201897804.332          38.625    38772484.340   164059056.115          42.375    38772489.414   156120169.592          40.812  
C05  39750636.554   206991551.691          36.000    39750627.390   168197598.459          40.188    39750632.410   160059006.657          38.188  
C06  39277053.797   204525963.598          39.375    39277041.352   166194124.718          41.312    39277048.773   158152472.714          41.625  
C07  36420485.859   189650731.250          48.688    36420471.067   154106967.979          50.188    36420478.606   146649756.321          48.812  
C08  39673624.679   206590937.993          39.625    39673611.410   167871527.120          40.812    39673619.184   159748715.011          40.312  
C09  37670839.008   196161634.669          45.812    37670826.797   159398056.892          47.000    37670835.156   151685247.333          45.312  
C10  36782930.977   191538801.810          47.000    36782918.883   155641242.507          48.312    36782927.125   148110224.297          47.000  
> 2015 07 13 12 00 30.0000000  0 37
G05  23343241.750   122668915.359          45.000                                                    23343245.602    95587178.793          43.125    23343245.473    95587128.791          30.812                                                  
G07  25744641.093   135288834.725          35.125                                                    25744644.242   105419838.777          33.875    25744644.465   105420459.753          16.312                                                  
G12  25762739.024   135384841.759          35.500                                                    25762743.051   105494352.497          33.188    25762743.684   105494270.530          15.625                                                  
G13  20597344.203   108239431.071          50.500                                                                                                    20597345.934    84342513.044          44.125                                                  
G15  22253852.391   116944726.339          48.500                                                    22253854.836    91125790.662          46.812    22253854.765    91125671.666          38.688                                                  
G17  21908796.219   115130867.036          50.375                                                    21908798.664    89712739.078          46.000    21908798.594    89712900.068          39.188                                                  
G20  23400930.359   122972808.643          44.312                                                                                                    23400932.676    95822870.467          25.000                                                  
G24  24986243.789   131304387.902          38.125                                                    24986248.403   102314424.187          39.375    24986248.742   102313985.195          18.625    24986252.687    98051616.559          44.125  
G28  20831712.898   109471755.489          51.312                                                                                                    20831713.691    85302556.638          40.625                                                  
G30  23109544.953   121441985.276          46.000                                                    23109549.801    94629972.457          45.125    23109550.023    94629527.447          33.188    23109553.676    90687198.780          50.000  
R03  23942093.930   128163388.619          38.812    23942098.894    99683434.720          37.812  
R04  20593727.273   110278210.117          53.188    20593730.125    85772791.052          48.375  
R05  21006715.086   112292800.071          46.312    21006720.754    87339195.359          46.188  
R06  24783812.023   132251647.421          38.875    24783816.402   102861454.218          31.375  
R13  24252760.359   129507859.997          32.188    24252766.262   100728730.643          36.375  
R14  20939802.860   111621080.501          45.875    20939810.640    86816878.935          40.812  
R15  21046876.047   112467365.402          50.375    21046880.777    87475142.103          44.688  
R16  24637900.383   131611540.470          34.812    24637907.344   102364650.813          31.500  
R17  22558993.680   120294444.182          44.188    22558999.348    93562372.449          33.688  
R23  23523257.531   125833496.745          42.125    23523266.016    97870845.499          34.688  
R24  21911492.992   117171033.667          44.125    21911495.375    91132398.796          39.125  
E11  27033154.281   142059505.513                    27033156.461   106083674.844                    27033153.133   108850864.788                    27033154.722   107467374.422                  
S27  40094660.047   210698221.022          38.188    40094651.746   157339846.817          40.625                                                  
S28  38014735.578   199768127.112          45.500    38014724.324   149177828.581          44.875                                                  
S29  37585574.672   197513356.120          44.875                                                                                                  
S37  37824328.031   198767544.934          43.000                                                                                                  
J01  44118948.531   231846232.542          33.500                                                    44118953.789   180659420.382          35.000                                                    44118960.184   173131638.317          40.312  
C01  37533167.305   195445284.576          43.312    37533152.219   158815031.314          46.312    37533156.476   151130435.400          46.000  
C02  38186671.016   198847610.641          37.812    38186661.676   161580253.886          43.500    38186665.051   153761867.829          42.375  
C03  36983772.414   192584688.439          43.625    36983760.730   156490228.477          47.875    36983765.629   148918121.390          46.125  
C04  38770080.937   201885223.364          38.188    38770068.375   164048833.074          42.812    38770073.274   156110441.222          40.688  
C05  39748104.281   206978366.419          36.125    39748095.117   168186884.378          39.688    39748100.019   160048811.009          38.375  
C06  39284601.336   204565264.654          40.125    39284588.539   166226060.044          41.312    39284596.371   158182862.775          41.125  
C07  36418674.351   189641298.268          49.812    36418659.735   154099302.915          49.500    36418667.156   146642462.142          47.875  
C08  39660211.461   206521101.026          38.625    39660199.836   167814778.866          40.625    39660206.789   159694712.630          40.188  
C09  37677895.445   196198381.671          45.688    37677883.469   159427916.842          46.500    37677891.594   151713662.448          45.625  
C10  36780440.789   191525834.537          46.500    36780428.461   155630705.555          47.312    36780436.879   148100197.199          46.125  
> 2015 07 13 12 01  0.0000000  0 37
G05  23356568.703   122738945.258          44.500                                                    23356572.321    95641747.537          43.188    23356572.074    95641697.534          30.125                                                  
G07  25755957.867   135348314.046          35.875                                                    25755962.891   105466186.211          33.688    25755963.348   105466807.164          16.875                                                  
G12  25742313.844   135277507.102          35.188                                                    25742317.754   105410715.284          32.625    25742318.211   105410633.287          14.812                                                  
G13  20590580.899   108203889.429          51.188                                                                                                    20590582.629    84314818.271          44.375                                                  
G15  22236185.867   116851891.034          48.625                                                    22236188.723    91053451.482          46.375    22236188.886    91053332.493          38.625                                                  
G17  21892984.406   115047775.412          50.625                                                    21892986.266    89647992.373          47.000    21892986.898    89648153.391          39.188                                                  
G20  23402170.570   122979326.965          44.312                                                                                                    23402172.477    95827949.692          27.000                                                  
G24  24969915.851   131218581.613          38.688                                                    24969919.703   102247562.318          40.688    24969919.398   102247123.307          19.000    24969923.168    97987540.635          44.125  
G28  20842707.133   109529534.211          51.312                                                                                                    20842708.805    85347579.025          39.875                                                  
G30  23118330.680   121488157.873          45.188                                                    23118336.113    94665951.087          44.875    23118336.453    94665506.080          32.125    23118340.281    90721678.312          49.875  
R03  23964626.469   128284011.024          38.125    23964632.840    99777252.103          37.000  
R04  20606984.016   110349205.029          53.000    20606987.688    85828009.328          48.312  
R05  20998068.570   112246578.295          46.000    20998073.418    87303245.108          46.625  
R06  24760380.203   132126613.778          42.375    24760384.933   102764205.981          33.625  
R13  24263730.609   129566434.649          32.812    24263735.926   100774288.679          36.000  
R14  20944651.820   111646933.797          44.500    20944660.422    86836987.058          40.812  
R15  21039975.453   112430494.610          50.312    21039981.238    87446464.850          45.312  
R16  24622745.929   131530590.037          36.312    24622752.652   102301689.340          32.375  
R17  22537268.664   120178603.409          43.812    22537275.508    93472274.218          33.125  
R23  23530725.344   125873434.797          43.875    23530731.012    97901908.395          33.375  
R24  21901780.719   117119106.266          43.688    21901785.332    91092010.860          40.000  
E11  27029455.844   142040073.865                    27029458.516   106069164.230                    27029455.984   108835975.631                    27029457.106   107452674.532                  
S27  40092224.625   210685423.974          38.375    40092216.114   157330290.414          40.312                                                  
S28  38012334.578   199755506.229          45.625    38012323.652   149168352.956          44.688                                                  
S29  37583140.969   197500551.186          44.688                                                                                                  
S37  37821935.031   198754964.046          43.312                                                                                                  
J01  44119426.078   231848751.364          33.500                                                    44119432.215   180661383.125          35.125                                                    44119438.668   173133519.292          40.188  
C01  37530729.789   195432591.966          43.375    37530714.703   158804717.546          46.000    37530718.902   151120620.684          46.375  
C02  38184244.273   198834974.305          37.812    38184234.582   161569985.856          42.875    38184237.781   153752096.657          42.000  
C03  36981096.969   192570757.789          43.625    36981085.285   156478908.702          47.625    36981090.360   148907349.345          46.312  
C04  38767665.688   201872645.514          38.375    38767652.301   164038612.538          43.000    38767657.320   156100715.233          41.875  
C05  39745572.610   206965182.035          36.125    39745563.446   168176171.018          40.125    39745568.406   160038616.044          37.188  
C06  39292151.289   204604579.146          40.375    39292138.254   166258006.281          41.625    39292145.851   158213263.230          40.625  
C07  36416853.836   189631818.229          48.000    36416838.574   154091599.614          50.312    36416846.289   146635131.589          48.125  
C08  39646802.492   206451265.304          39.312    39646789.164   167758031.622          40.500    39646796.762   159640711.222          39.812  
C09  37684970.945   196235219.749          45.875    37684957.676   159457850.818          46.000    37684966.449   151742148.015          44.875  
C10  36777942.586   191512827.658          47.688    36777930.668   155620136.396          47.125    36777938.910   148090139.459          46.500  
> 2015 07 13 12 01 30.0000000  0 37
G05  23369929.383   122809159.198          44.625                                                    23369933.117    95696459.678          42.625    23369933.106    95696409.685          30.875                                                  
G07  25767284.226   135407829.548          33.500                                                    25767287.785   105512561.954          28.500    25767288.594   105513182.846          13.875                                                  
G12  25721915.336   135170320.482          32.000                                                    25721921.356   105327193.492          33.625    25721921.227   105327111.473          14.812                                                  
G13  20583909.071   108168829.616          51.125                                                                                                    20583910.566    84287498.948          44.500                                                  
G15  22218583.836   116759392.910          48.000                                                    22218586.574    90981375.050          46.312    22218586.504    90981256.058          38.125                                                  
G17  21877259.602   114965146.974          49.812                                                    21877264.097    89583606.648          47.188    21877263.676    89583767.637          38.875                                                  
G20  23403500.360   122986312.582          44.375                                                                                                    23403501.856    95833393.037          27.000                                                  
G24  24953585.805   131132773.935          36.375                                                    24953591.238   102180699.359          41.125    24953591.168   102180260.352          18.625    24953594.703    97923463.664          43.688  
G28  20853777.281   109587709.170          50.875                                                                                                    20853779.012    85392910.154          40.125                                                  
G30  23127139.172   121534442.942          46.125                                                    23127144.019    94702017.357          44.875    23127144.359    94701572.349          32.812    23127148.188    90756241.821          50.312  
R03  23987157.195   128404610.630          38.875    23987160.988    99871051.788          36.375  
R04  20620356.453   110420812.288          53.125    20620358.836    85883703.860          48.312  
R05  20989572.617   112201158.775          47.188    20989576.410    87267918.830          47.000  
R06  24737011.562   132001905.292          40.188    24737014.297   102667210.689          31.625  
R13  24274691.953   129624966.298          32.812    24274696.918   100819813.252          35.812  
R14  20949519.313   111672881.037          44.375    20949528.383    86857168.235          40.375  
R15  21033108.297   112393796.366          49.875    21033113.848    87417921.805          45.375  
R16  24607614.164   131449755.324          35.875    24607619.832   102238817.858          31.312  
R17  22515598.961   120063038.760          45.312    22515603.457    93382390.748          33.812  
R23  23538321.422   125914064.129          44.625    23538326.387    97933508.987          32.375  
R24  21892201.852   117067882.403          43.812    21892205.172    91052170.121          39.312  
E11  27025837.234   142021057.870                    27025840.078   106054964.008                    27025837.359   108821404.962                    27025838.570   107438289.094                  
S27  40089793.281   210672654.506          37.500    40089786.387   157320754.802          40.625                                                  
S28  38009936.812   199742913.950          46.188    38009926.496   149159096.596          44.875                                                  
S29  37580709.297   197487773.354          44.688                                                                                                  
S37  37819548.313   198742410.115          43.375                                                                                                  
J01  44119880.516   231851144.497          33.375                                                    44119887.355   180663247.911          34.812                                                    44119894.453   173135306.384          40.125  
C01  37528298.242   195419929.524          43.375    37528283.273   158794428.280          46.500    37528287.238   151110829.289          46.500  
C02  38181822.906   198822365.224          37.875    38181813.508   161559739.971          43.500    38181816.707   153742346.549          44.000  
C03  36978427.196   192556855.017          43.625    36978415.395   156467611.562          48.312    36978420.586   148896598.852          47.188  
C04  38765255.640   201860096.223          38.312    38765242.547   164028415.227          42.375    38765247.508   156091011.342          41.312  
C05  39743046.000   206952024.066          36.312    39743036.484   168165479.124          39.875    39743041.562   160028441.516          39.188  
C06  39299708.500   204643931.988          40.125    39299695.703   166289983.685          41.375    39299703.418   158243693.341          41.000  
C07  36415028.789   189622316.635          49.500    36415014.055   154083878.794          50.188    36415021.476   146627784.356          48.188  
C08  39633395.523   206381457.167          39.188    39633383.488   167701306.804          41.125    39633390.617   159586731.167          40.312  
C09  37692066.336   196272173.973          45.812    37692054.535   159487879.170          46.000    37692063.012   151770723.376          45.500  
C10  36775441.696   191499806.426          46.625    36775430.070   155609555.592          47.375    36775438.371   148080070.640          46.312  
> 2015 07 13 12 02  0.0000000  0 37
G05  23383320.398   122879530.368          43.875                                                    23383323.371    95751294.352          42.188    23383323.945    95751244.351          29.625                                                  
G07  25778612.297   135467358.291          34.312                                                    25778616.734   105558947.835          33.625                                                                                                  
G12  25701543.234   135063260.188          36.625                                                    25701547.320   105243770.112          33.375    25701547.426   105243688.116          15.625                                                  
G13  20577325.031   108134230.203          51.125                                                                                                    20577326.527    84260538.379          44.625                                                  
G15  22201042.320   116667211.311          48.125                                                    22201045.117    90909545.265          46.312    22201044.930    90909426.262          38.312                                                  
G17  21861621.516   114882961.781          50.375                                                    21861623.668    89519566.243          46.875    21861623.949    89519727.255          39.500                                                  
G20  23404913.875   122993740.548          43.875                                                                                                    23404915.664    95839181.073          27.125                                                  
G24  24937252.055   131046941.433          39.125                                                    24937257.840   102113817.073          41.125    24937258.179   102113378.050          20.125    24937261.656    97859368.156          44.625  
G28  20864919.156   109646254.543          51.000                                                                                                    20864919.832    85438529.927          40.312                                                  
G30  23135963.367   121580817.574          46.188                                                    23135968.215    94738153.425          44.625    23135968.262    94737708.410          31.875    23135972.441    90790872.212          50.375  
R03  24009672.234   128525160.188          34.188    24009680.016    99964812.571          36.500  
R04  20633838.890   110493004.715          53.188    20633841.039    85939853.524          48.188  
R05  20981221.438   112156519.230          47.000    20981225.816    87233199.202          46.625  
R06  24713697.695   131877501.335          40.875    24713701.723   102570452.105          30.875  
R13  24285641.930   129683432.336          32.875    24285645.957   100865286.767          36.375  
R14  20954399.203   111698897.651          43.625    20954408.274    86877403.385          40.875  
R15  21026268.094   112357246.346          49.812    21026273.879    87389494.021          45.812  
R16  24592496.672   131369011.994          37.312    24592505.039   102176017.468          34.188  
R17  22493974.422   119947731.215          44.312    22493979.621    93292707.228          34.625  
R23  23546039.656   125955358.644          44.625    23546045.676    97965626.950          33.375  
R24  21882751.180   117017341.223          44.312    21882753.680    91012860.339          39.312  
E11  27022293.969   142002434.982                    27022296.367   106041057.330                    27022293.274   108807135.498                    27022294.609   107424201.024                  
S27  40087365.344   210659889.049          37.312    40087356.480   157311222.157          40.188                                                  
S28  38007541.312   199730324.753          46.375    38007530.856   149149644.431          44.875                                                  
S29  37578276.500   197474999.707          45.188                                                                                                  
S37  37817163.547   198729860.906          43.375                                                                                                  
J01  44120310.125   231853388.736          34.500                                                    44120314.445   180664996.704          34.312                                                    44120321.718   173136982.311          40.375  
C01  37525867.719   195407274.351          43.375    37525852.633   158784144.930          46.125    37525856.949   151101043.524          46.875  
C02  38179402.352   198809760.506          38.000    38179392.660   161549497.602          43.312    38179395.801   153732599.819          43.812  
C03  36975758.242   192542957.141          43.500    36975746.734   156456318.425          47.625    36975751.750   148885852.154          47.000  
C04  38762846.539   201847552.531          38.312    38762833.680   164018222.457          42.625    38762838.699   156081311.776          41.688  
C05  39740519.774   206938869.560          36.188    39740510.492   168154790.049          39.625    39740515.512   160018269.659          38.312  
C06  39307269.484   204683299.792          39.875    39307256.098   166321973.251          41.875    39307263.813   158274135.031          41.125  
C07  36413195.930   189612770.485          48.500    36413181.137   154076121.766          50.500    36413188.676   146620402.672          48.812  
C08  39619991.125   206311654.238          39.625    39619977.738   167644586.220          40.875    39619984.164   159532755.113          39.500  
C09  37699181.867   196309220.909          46.312    37699169.008   159517982.844          45.812    37699177.078   151799370.416          45.188  
C10  36772934.086   191486747.841          46.312    36772922.226   155598944.432          47.812    36772930.410   148069972.927          46.625  
> 2015 07 13 12 02 30.0000000  0 37
G05  23396740.203   122950051.056          44.125                                                    23396743.645    95806245.521          42.625    23396743.691    95806195.522          29.375                                                  
G07  25789942.250   135526895.927          38.812                                                    25789946.277   105605340.741          35.500    25789946.793   105605793.724          19.000                                                  
G12  25681193.352   134956322.094          34.375                                                    25681196.910   105160441.983          31.812    25681197.308   105160360.031          14.812                                                  
G13  20570828.086   108100088.400          50.312                                                                                                    20570829.524    84233934.387          44.312                                                  
G15  22183561.125   116575344.376          48.000                                                    22183563.219    90837960.665          46.000    22183563.383    90837841.669          38.312                                                  
G17  21846066.172   114801218.036          50.125                                                    21846068.559    89455869.903          47.125    21846068.430    89456030.899          39.812                                                  
G20  23406409.992   123001604.871          44.312                                                                                                    23406412.074    95845309.130          27.125                                                  
G24  24920913.930   130961079.784          39.125                                                    24920918.191   102046912.050          40.188    24920918.824   102046473.043          19.875    24920922.711    97795250.857          44.500  
G28  20876128.429   109705162.811          50.375                                                                                                    20876129.809    85484432.486          40.125                                                  
G30  23144804.109   121627277.404          45.812                                                    23144809.191    94774355.881          44.375    23144809.238    94773910.870          31.812    23144813.359    90825566.230          50.500  
R03  24032185.273   128645651.528          38.375    24032188.594   100058528.021          36.188  
R04  20647427.789   110565773.331          53.312    20647429.820    85996451.326          47.500  
R05  20973015.211   112112656.467          47.000    20973019.941    87199083.733          46.375  
R06  24690440.461   131753400.627          39.125    24690445.308   102473929.342          29.875  
R13  24296574.688   129741828.381          31.312    24296582.117   100910705.862          36.688  
R14  20959292.633   111724978.510          44.375    20959301.000    86897688.498          40.875  
R15  21019455.719   112320839.124          49.812    21019460.918    87361177.303          45.688  
R16  24577399.531   131288354.706          36.500    24577405.434   102113283.991          33.312  
R17  22472397.297   119832682.507          43.688    22472403.551    93203225.013          33.625  
R23  23553882.133   125997311.624          43.375    23553888.621    97998257.040          33.000  
R24  21873426.547   116967481.029          44.375    21873428.930    90974080.228          39.125  
E11  27018824.297   141984201.297                    27018826.656   106027441.291                    27018823.656   108793164.250                    27018825.008   107410407.377                  
S27  40084932.781   210647123.609          38.125    40084927.293   157301689.945          40.812                                                  
S28  38005145.797   199717736.440          46.312    38005134.777   149140193.771          44.875                                                  
S29  37575846.063   197462227.233          44.688                                                                                                  
S37  37814774.250   198717310.566          42.500                                                                                                  
J01  44120706.688   231855479.226          32.812                                                    44120712.414   180666625.688          35.188                                                    44120719.395   173138543.435          40.625  
C01  37523438.234   195394621.874          43.312    37523422.973   158773863.775          46.375    37523426.996   151091259.851          45.875  
C02  38176981.469   198797155.634          37.625    38176972.129   161539255.138          43.125    38176975.445   153722852.967          43.688  
C03  36973089.234   192529059.719          43.500    36973077.668   156445025.633          47.812    36973082.801   148875105.801          46.312  
C04  38760437.438   201835009.898          38.125    38760424.934   164008030.553          42.875    38760429.891   156071613.032          42.000  
C05  39737993.203   206925713.959          36.312    39737983.805   168144100.079          40.000    39737988.942   160008096.965          39.188  
C06  39314831.070   204722677.342          39.312    39314818.508   166353970.728          41.312    39314826.574   158304584.247          41.500  
C07  36411353.227   189603175.317          50.500    36411338.024   154068324.914          50.125    36411345.680   146612983.084          48.688  
C08  39606585.812   206241852.416          39.000    39606573.191   167587866.541          40.812    39606580.731   159478779.935          40.375  
C09  37706312.922   196346355.450          46.188    37706300.242   159548157.718          45.812    37706308.191   151828085.233          44.312  
C10  36770418.828   191473647.281          47.812    36770406.383   155588299.172          47.375    36770414.684   148059842.763          47.625  
> 2015 07 13 12 03  0.0000000  0 37
G05  23410187.508   123020713.514          43.500                                                    23410190.481    95861307.170          42.125    23410190.645    95861257.179          28.875                                                  
G07  25801273.203   135586437.522          36.188                                                    25801276.821   105651736.736          32.625    25801276.340   105652189.719          15.625                                                  
G12  25660866.914   134849502.493          37.000                                                    25660870.356   105077206.082          34.188    25660870.168   105077124.064          16.312                                                  
G13  20564417.836   108066400.856          51.000                                                                                                    20564419.566    84207684.363          44.688                                                  
G15  22166138.375   116483789.803          47.875                                                    22166140.879    90766619.462          45.812    22166140.516    90766500.466          38.125                                                  
G17  21830593.406   114719913.777          50.312                                                    21830595.852    89392515.933          47.000    21830596.543    89392676.944          39.125                                                  
G20  23407988.235   123009899.085          43.875                                                                                                    23407990.199    95851772.157          27.188                                                  
G24  24904567.899   130875183.997          38.812                                                    24904573.156   101979980.363          40.625    24904573.555   101979541.369          20.375    24904576.738    97731108.026          44.875  
G28  20887405.929   109764426.738          50.812                                                                                                    20887407.191    85530612.170          39.812                                                  
G30  23153661.274   121673817.865          45.875                                                    23153666.238    94810621.164          44.000    23153665.641    94810176.161          31.312    23153669.762    90860320.454          50.188  
R03  24054680.742   128766075.540          36.312    24054685.707   100152191.205          36.500  
R04  20661122.086   110639109.532          52.875    20661125.172    86053490.581          47.688  
R05  20964954.914   112069566.681          46.625    20964959.059    87165569.468          46.625  
R06  24667242.156   131629603.387          40.312    24667245.828   102377642.513          32.125  
R13  24307499.742   129800149.832          32.812    24307504.121   100956066.941          36.312  
R14  20964196.469   111751118.208          43.812    20964205.422    86918019.389          40.688  
R15  21012668.156   112284569.305          50.125    21012673.121    87332967.464          45.312  
R16  24562313.758   131207778.295          37.625    24562321.187   102050613.602          31.875  
R17  22450870.438   119717891.676          44.125    22450877.043    93113943.374          33.625  
R23  23561847.719   126039916.817          43.125    23561853.504    98031394.402          32.625  
R24  21864230.687   116918299.452          44.625    21864232.836    90935827.927          38.625  
E11  27015427.297   141966352.517                    27015430.117   106014112.674                    27015427.164   108779487.927                    27015428.278   107396904.906                  
S27  40082505.547   210634354.084          36.625    40082497.386   157292154.334          41.375                                                  
S28  38002749.656   199705141.631          45.812    38002738.238   149130737.428          44.625                                                  
S29  37573417.891   197449449.446          44.688                                                                                                  
S37  37812381.313   198704755.443          43.500                                                                                                  
J01  44121073.719   231857411.152          31.625                                                    44121079.679   180668131.110          35.312                                                    44121087.363   173139986.130          40.375  
C01  37521007.664   195381967.454          43.375    37520992.988   158763581.028          46.500    37520996.894   151081474.665          45.500  
C02  38174560.266   198784545.891          37.875    38174550.164   161529008.722          43.375    38174553.363   153713102.349          43.688  
C03  36970419.469   192515157.945          43.375    36970407.902   156433729.314          47.688    36970412.742   148864356.078          46.812  
C04  38758028.516   201822463.755          38.125    38758016.187   163997835.795          43.312    38758020.969   156061911.568          41.000  
C05  39735465.445   206912552.635          36.312    39735456.164   168133405.472          39.875    39735461.183   159997919.846          38.688  
C06  39322394.234   204762059.281          40.625    39322380.848   166385971.784          41.312    39322388.973   158335036.861          41.188  
C07  36409500.258   189593526.334          50.000    36409485.055   154060484.328          49.812    36409492.828   146605521.890          48.875  
C08  39593181.969   206172047.939          39.812    39593168.113   167531144.697          40.875    39593175.418   159424802.707          40.125  
C09  37713459.805   196383572.411          46.000    37713447.535   159578399.553          45.812    37713455.778   151856863.751          45.500  
C10  36767893.961   191460499.642          47.000    36767881.101   155577615.648          48.000    36767889.523   148049676.186          47.125  
> 2015 07 13 12 03 30.0000000  0 37
G05  23423659.508   123091512.481          44.125                                                    23423663.887    95916475.176          41.812    23423663.699    95916425.174          29.375                                                  
G07  25812602.789   135645981.932          34.688                                                    25812607.578   105698134.939          33.375                                                                                                  
G12  25640561.688   134742800.472          36.875                                                    25640564.719   104994061.797          33.312    25640565.703   104993979.815          18.625                                                  
G13  20558093.719   108033166.607          50.188                                                                                                    20558095.156    84181787.559          44.500                                                  
G15  22148776.656   116392547.783          48.000                                                    22148777.988    90695521.800          45.812    22148777.742    90695402.803          38.125                                                  
G17  21815207.352   114639050.065          50.688                                                    21815209.094    89329505.323          46.375    21815208.672    89329666.319          40.188                                                  
G20  23409648.023   123018618.973          43.312                                                                                                    23409648.992    95858566.888          28.500                                                  
G24  24888212.828   130789251.580          38.375                                                    24888220.664   101913020.144          40.688    24888220.125   101912581.130          20.375    24888224.012    97666937.841          45.312  
G28  20898750.492   109824041.022          50.125                                                                                                    20898751.578    85577064.856          39.875                                                  
G30  23162532.172   121720436.715          46.500                                                    23162536.843    94846947.536          44.125    23162536.715    94846502.526          29.875    23162540.836    90895133.216          50.188  
R03  24077163.539   128886426.631          36.125    24077167.801   100245797.482          37.688  
R04  20674920.492   110713006.187          51.625    20674924.637    86110965.769          48.188  
R05  20957037.867   112027248.699          46.312    20957042.597    87132655.496          46.625  
R06  24644097.055   131506109.123          37.188    24644104.015   102281591.193          29.500  
R13  24318408.016   129858394.508          34.188    24318411.570   101001368.271          37.688  
R14  20969110.836   111777313.486          44.125    20969118.852    86938393.505          40.812  
R15  21005905.633   112248432.888          50.625    21005911.183    87304861.381          45.625  
R16  24547245.305   131127279.293          36.375    24547252.266   101988003.441          32.625  
R17  22429392.234   119603359.511          44.375    22429399.781    93024862.917          34.625  
R23  23569931.125   126083169.153          41.688    23569940.313    98065035.054          33.812  
R24  21855160.617   116869796.966          45.188    21855161.945    90898103.800          39.125  
E11  27012103.555   141948886.765                    27012106.453   106001070.070                    27012103.172   108766105.082                    27012104.461   107383692.182                  
S27  40080074.219   210621575.567          37.000    40080065.684   157282611.966          40.812                                                  
S28  38000351.469   199692541.611          46.312    38000340.426   149121474.732          44.875                                                  
S29  37570983.016   197436663.130          45.000                                                                                                  
S37  37810001.187   198692194.796          42.375                                                                                                  
J01  44121411.813   231859181.914          32.312                                                    44121417.129   180669510.943          34.875                                                    44121424.520   173141308.468          40.875  
C01  37518576.734   195369308.509          43.188    37518561.824   158753294.619          45.625    37518566.023   151071685.985          45.625  
C02  38172137.031   198771928.722          37.812    38172127.047   161518756.267          43.188    38172130.363   153703345.992          43.875  
C03  36967748.781   192501249.399          43.375    36967736.922   156422427.503          47.812    36967741.762   148853601.127          47.000  
C04  38755617.914   201809911.571          38.000    38755605.527   163987636.136          43.312    38755610.192   156052205.448          42.188  
C05  39732936.547   206899383.009          36.312    39732926.973   168122704.123          39.312    39732932.109   159987736.325          39.375  
C06  39329957.422   204801442.672          39.688    39329944.445   166417974.013          41.312    39329952.574   158365490.606          42.000  
C07  36407636.438   189583821.013          49.625    36407621.234   154052597.965          49.812    36407628.891   146598017.124          48.812  
C08  39579775.977   206102238.734          39.188    39579761.945   167474419.035          40.688    39579769.016   159370821.847          40.375  
C09  37720622.938   196420868.928          46.000    37720609.785   159608706.048          46.688    37720617.676   151885703.799          45.125  
C10  36765359.320   191447302.459          47.188    36765346.875   155566891.869          48.000    36765355.410   148039471.295          47.000  
> 2015 07 13 12 04  0.0000000  0 37
G05  23437156.687   123162444.057          42.875                                                    23437161.125    95971746.522          41.812    23437160.937    95971696.519          29.875                                                  
G07  25823935.922   135705528.765          35.688                                                    25823940.242   105744535.001          36.125    25823939.820   105744988.994          17.375                                                  
G12  25620277.211   134636216.611          36.375                                                    25620283.055   104911009.544          34.812    25620283.805   104910927.525          18.625                                                  
G13  20551855.500   108000386.912          50.188                                                                                                    20551857.348    84156244.939          44.688                                                  
G15  22131472.562   116301620.509          48.125                                                    22131475.301    90624669.399          45.812    22131474.645    90624550.402          38.312                                                  
G17  21799901.406   114558629.355          50.000                                                    21799904.789    89266839.861          46.625    21799905.129    89267000.865          38.625                                                  
G20  23411388.102   123027762.192          43.688                                                                                                    23411389.656    95865691.483          25.625                                                  
G24  24871854.758   130703282.075          38.625                                                    24871860.543   101846031.023          39.688    24871860.355   101845592.016          20.875    24871864.360    97602739.955          44.812  
G28  20910160.399   109884002.256          50.688                                                                                                    20910161.601    85623787.910          39.188                                                  
G30  23171418.727   121767133.771          46.312                                                    23171422.461    94883334.838          43.625    23171422.449    94882889.824          31.312    23171426.687    90930004.376          50.000  
R03  24099631.898   129006700.387          38.500    24099637.567   100339343.752          37.875  
R04  20688824.476   110787459.220          52.188    20688827.563    86168873.686          47.000  
R05  20949266.461   111985703.412          45.875    20949270.371    87100342.518          46.875  
R06  24621013.883   131382922.591          37.188    24621018.496   102185779.286          30.125  
R13  24329299.242   129916563.168          33.188    24329304.324   101046610.534          36.312  
R14  20974035.312   111803563.378          44.125    20974043.328    86958810.092          40.812  
R15  20999168.008   112212429.063          50.188    20999172.855    87276858.423          45.312  
R16  24532189.313   131046856.455          36.312    24532196.508   101925452.565          32.375  
R17  22407965.367   119489091.133          45.188    22407969.746    92935987.604          34.125  
R23  23578139.227   126127066.253          44.188    23578145.949    98099177.208          33.375  
R24  21846216.844   116821975.355          45.375    21846218.875    90860909.239          39.312  
E11  27008852.914   141931804.157                    27008855.773   105988313.583                    27008852.680   108753015.819                    27008853.828   107370769.307                  
S27  40077641.109   210608789.227          36.312    40077633.043   157273063.740          40.812                                                  
S28  37997952.906   199679933.782          46.188    37997941.910   149112009.080          45.000                                                  
S29  37568549.047   197423869.388          44.812                                                                                                  
S37  37807600.828   198679624.595          42.625                                                                                                  
J01  44121716.750   231860790.924          32.500                                                    44121723.180   180670764.742          34.812                                                    44121729.926   173142510.030          39.875  
C01  37516144.570   195356644.811          43.375    37516129.836   158743004.330          46.625    37516133.801   151061893.617          47.188  
C02  38169712.758   198759304.018          37.688    38169703.242   161508497.702          43.188    38169706.266   153693583.825          43.875  
C03  36965075.953   192487333.764          43.375    36965064.328   156411119.921          47.625    36965069.402   148842840.688          47.188  
C04  38753205.812   201797352.934          38.125    38753193.543   163977431.231          42.500    38753198.324   156042494.329          42.188  
C05  39730405.180   206886204.802          36.312    39730396.309   168111995.804          39.312    39730401.035   159977546.161          38.812  
C06  39337521.242   204840826.591          40.000    39337507.738   166449976.685          41.375    39337515.746   158395944.754          41.125  
C07  36405761.656   189574059.007          49.625    36405746.511   154044665.548          49.812    36405754.344   146590468.532          48.688  
C08  39566367.633   206032425.588          39.188    39566354.774   167417690.172          40.375    39566362.195   159316837.952          40.812  
C09  37727799.422   196458243.985          45.812    37727787.270   159639076.348          46.125    37727795.394   151914604.580          45.500  
C10  36762815.453   191434055.084          47.375    36762802.949   155556127.306          48.125    36762811.602   148029227.601          47.000  
> 2015 07 13 12 04 30.0000000  0 37
G05  23450680.586   123233510.136          43.625                                                    23450683.910    96027122.670          41.812    23450683.781    96027072.672          29.312                                                  
G07  25835267.383   135765083.095          39.375                                                    25835271.410   105790940.920          34.375    25835271.633   105791394.922          19.875                                                  
G12  25600021.047   134529757.125          36.625                                                    25600023.961   104828054.208          33.688    25600024.184   104827972.204          16.875                                                  
G13  20545705.773   107968068.340          50.500                                                                                                    20545707.445    84131061.647          44.500                                                  
G15  22114231.781   116211015.355          49.000                                                    22114233.817    90554068.000          45.812    22114233.629    90553949.004          38.688                                                  
